{"type":"FeatureCollection","features":[{"type":"Feature","id":1,"geometry":{"type":"Point","coordinates":[-74.0073,40.7118]},"properties":{"Rank_1890":"1","Place_1890":"New York city","Name":"New York","State":"NY","Note":"note","Pop_1890":1515301,"Latitude":40.7118,"Longitude":-74.0073,"FID":1}},{"type":"Feature","id":2,"geometry":{"type":"Point","coordinates":[-87.6281,41.8775]},"properties":{"Rank_1890":"2","Place_1890":"Chicago city","Name":"Chicago","State":"IL","Note":null,"Pop_1890":1099850,"Latitude":41.8775,"Longitude":-87.6281,"FID":2}},{"type":"Feature","id":3,"geometry":{"type":"Point","coordinates":[-75.163,39.9518]},"properties":{"Rank_1890":"3","Place_1890":"Philadelphia city","Name":"Philadelphia","State":"PA","Note":null,"Pop_1890":1046964,"Latitude":39.9518,"Longitude":-75.163,"FID":3}},{"type":"Feature","id":4,"geometry":{"type":"Point","coordinates":[-73.9683,40.6802]},"properties":{"Rank_1890":"4","Place_1890":"Brooklyn city","Name":"Brooklyn","State":"NY","Note":"note","Pop_1890":806343,"Latitude":40.6802,"Longitude":-73.9683,"FID":4}},{"type":"Feature","id":5,"geometry":{"type":"Point","coordinates":[-90.1873,38.6307]},"properties":{"Rank_1890":"5","Place_1890":"St Louis city","Name":"Saint Louis","State":"MO","Note":null,"Pop_1890":451770,"Latitude":38.6307,"Longitude":-90.1873,"FID":5}},{"type":"Feature","id":6,"geometry":{"type":"Point","coordinates":[-71.0586,42.3576]},"properties":{"Rank_1890":"6","Place_1890":"Boston city","Name":"Boston","State":"MA","Note":null,"Pop_1890":448477,"Latitude":42.3576,"Longitude":-71.0586,"FID":6}},{"type":"Feature","id":7,"geometry":{"type":"Point","coordinates":[-76.7138,39.2904]},"properties":{"Rank_1890":"7","Place_1890":"Baltimore city","Name":"Baltimore","State":"MD","Note":null,"Pop_1890":434439,"Latitude":39.2904,"Longitude":-76.7138,"FID":7}},{"type":"Feature","id":9,"geometry":{"type":"Point","coordinates":[-84.5194,39.1039]},"properties":{"Rank_1890":"9","Place_1890":"Cincinnati city","Name":"Cincinnati","State":"OH","Note":null,"Pop_1890":296908,"Latitude":39.1039,"Longitude":-84.5194,"FID":9}},{"type":"Feature","id":10,"geometry":{"type":"Point","coordinates":[-81.6965,41.5016]},"properties":{"Rank_1890":"10","Place_1890":"Cleveland city","Name":"Cleveland","State":"OH","Note":null,"Pop_1890":261353,"Latitude":41.5016,"Longitude":-81.6965,"FID":10}},{"type":"Feature","id":11,"geometry":{"type":"Point","coordinates":[-78.8775,42.8838]},"properties":{"Rank_1890":"11","Place_1890":"Buffalo city","Name":"Buffalo","State":"NY","Note":null,"Pop_1890":255664,"Latitude":42.8838,"Longitude":-78.8775,"FID":11}},{"type":"Feature","id":12,"geometry":{"type":"Point","coordinates":[-90.0687,29.9608]},"properties":{"Rank_1890":"12","Place_1890":"New Orleans city","Name":"New Orleans","State":"LA","Note":null,"Pop_1890":242039,"Latitude":29.9608,"Longitude":-90.0687,"FID":12}},{"type":"Feature","id":13,"geometry":{"type":"Point","coordinates":[-79.995,40.4411]},"properties":{"Rank_1890":"13","Place_1890":"Pittsburgh city","Name":"Pittsburgh","State":"PA","Note":"note","Pop_1890":238617,"Latitude":40.4411,"Longitude":-79.995,"FID":13}},{"type":"Feature","id":14,"geometry":{"type":"Point","coordinates":[-77.0229,38.89]},"properties":{"Rank_1890":"14","Place_1890":"Washington city","Name":"Washington","State":"DC","Note":"note","Pop_1890":230392,"Latitude":38.89,"Longitude":-77.0229,"FID":14}},{"type":"Feature","id":15,"geometry":{"type":"Point","coordinates":[-83.0455,42.3313]},"properties":{"Rank_1890":"15","Place_1890":"Detroit city","Name":"Detroit","State":"MI","Note":null,"Pop_1890":205876,"Latitude":42.3313,"Longitude":-83.0455,"FID":15}},{"type":"Feature","id":16,"geometry":{"type":"Point","coordinates":[-87.9063,43.0391]},"properties":{"Rank_1890":"16","Place_1890":"Milwaukee city","Name":"Milwaulee","State":"WI","Note":null,"Pop_1890":204468,"Latitude":43.0391,"Longitude":-87.9063,"FID":16}},{"type":"Feature","id":17,"geometry":{"type":"Point","coordinates":[-74.1732,40.7348]},"properties":{"Rank_1890":"17","Place_1890":"Newark city","Name":"Newark","State":"NJ","Note":null,"Pop_1890":181830,"Latitude":40.7348,"Longitude":-74.1732,"FID":17}},{"type":"Feature","id":18,"geometry":{"type":"Point","coordinates":[-87.9063,43.0391]},"properties":{"Rank_1890":"18","Place_1890":"Minneapolis city","Name":"Minneapolis","State":"MN","Note":null,"Pop_1890":164738,"Latitude":43.0391,"Longitude":-87.9063,"FID":18}},{"type":"Feature","id":19,"geometry":{"type":"Point","coordinates":[-74.0462,40.7218]},"properties":{"Rank_1890":"19","Place_1890":"Jersey City city","Name":"Jersey City","State":"NJ","Note":null,"Pop_1890":163003,"Latitude":40.7218,"Longitude":-74.0462,"FID":19}},{"type":"Feature","id":20,"geometry":{"type":"Point","coordinates":[-85.7589,38.2544]},"properties":{"Rank_1890":"20","Place_1890":"Louisville city","Name":"Louisville","State":"KY","Note":null,"Pop_1890":161129,"Latitude":38.2544,"Longitude":-85.7589,"FID":20}},{"type":"Feature","id":22,"geometry":{"type":"Point","coordinates":[-77.6161,43.1547]},"properties":{"Rank_1890":"22","Place_1890":"Rochester city","Name":"Rochester","State":"NY","Note":null,"Pop_1890":133896,"Latitude":43.1547,"Longitude":-77.6161,"FID":22}},{"type":"Feature","id":25,"geometry":{"type":"Point","coordinates":[-71.4123,41.8242]},"properties":{"Rank_1890":"25","Place_1890":"Providence city","Name":"Providence","State":"RI","Note":"note","Pop_1890":132146,"Latitude":41.8242,"Longitude":-71.4123,"FID":25}},{"type":"Feature","id":27,"geometry":{"type":"Point","coordinates":[-86.1594,39.7684]},"properties":{"Rank_1890":"27","Place_1890":"Indianapolis city","Name":"Indianapolis","State":"IN","Note":null,"Pop_1890":105436,"Latitude":39.7684,"Longitude":-86.1594,"FID":27}},{"type":"Feature","id":28,"geometry":{"type":"Point","coordinates":[-80.0171,40.4508]},"properties":{"Rank_1890":"28","Place_1890":"Allegheny city","Name":"Allegheny","State":"PA","Note":"note","Pop_1890":105287,"Latitude":40.4508,"Longitude":-80.0171,"FID":28}},{"type":"Feature","id":29,"geometry":{"type":"Point","coordinates":[-73.7565,42.6525]},"properties":{"Rank_1890":"29","Place_1890":"Albany city","Name":"Albany","State":"NY","Note":null,"Pop_1890":94923,"Latitude":42.6525,"Longitude":-73.7565,"FID":29}},{"type":"Feature","id":30,"geometry":{"type":"Point","coordinates":[-82.9989,39.9612]},"properties":{"Rank_1890":"30","Place_1890":"Columbus city","Name":"Columbus","State":"OH","Note":null,"Pop_1890":88150,"Latitude":39.9612,"Longitude":-82.9989,"FID":30}}]}