{"type": "FeatureCollection", "features": [{"geometry": {"type": "Point", "coordinates": [-87.78516999999994, 41.597140000000024]}, "type": "Feature", "properties": {"city": "Tinley Park", "state": "IL", "name": "Mr. and Mrs. Mark Keller"}}, {"geometry": {"type": "Point", "coordinates": [-86.39775999999995, 39.704390000000046]}, "type": "Feature", "properties": {"city": "Plainfield", "state": "IN", "name": "Mr. Ryan Keller"}}, {"geometry": {"type": "Point", "coordinates": [-87.78516999999994, 41.597140000000024]}, "type": "Feature", "properties": {"city": "Tinley Park ", "state": "IL", "name": "Mr. Sean Keller"}}, {"geometry": {"type": "Point", "coordinates": [-87.85358999999994, 41.617560000000026]}, "type": "Feature", "properties": {"city": "Orland Park", "state": "IL", "name": "Mrs. Madonna Hardy"}}, {"geometry": {"type": "Point", "coordinates": [-88.11054999999999, 42.55448000000007]}, "type": "Feature", "properties": {"city": "Salem", "state": "WI", "name": "Mr. and Mrs. Peter Spear"}}, {"geometry": {"type": "Point", "coordinates": [-89.07805999999994, 42.26690000000008]}, "type": "Feature", "properties": {"city": "Rockford", "state": "IL", "name": "Mrs. Cara Keller"}}, {"geometry": {"type": "Point", "coordinates": [-89.07805999999994, 42.26690000000008]}, "type": "Feature", "properties": {"city": "Rockford", "state": "IL", "name": "Mr. and Mrs.Timothy Horning and Family"}}, {"geometry": {"type": "Point", "coordinates": [-90.19955999999996, 38.62775000000005]}, "type": "Feature", "properties": {"city": "St. Louis", "state": "MO", "name": "Miss Emily Horning and Guest"}}, {"geometry": {"type": "Point", "coordinates": [-88.03711999999996, 42.113060000000075]}, "type": "Feature", "properties": {"city": "Palatine", "state": "IL", "name": "Mr. and Mrs. Gregory Keller and Family"}}, {"geometry": {"type": "Point", "coordinates": [-84.54587999999995, 33.95319000000006]}, "type": "Feature", "properties": {"city": "Marietta", "state": "GA", "name": "Miss Elissa Keller and Guest"}}, {"geometry": {"type": "Point", "coordinates": [-88.26451999999995, 42.11823000000004]}, "type": "Feature", "properties": {"city": "Carpentersville", "state": "IL", "name": "Mr. and Mrs. Thomas Yehl"}}, {"geometry": {"type": "Point", "coordinates": [-114.98206999999996, 36.031780000000026]}, "type": "Feature", "properties": {"city": "Henderson", "state": "NV", "name": "Mr. Mitchell Marciano"}}, {"geometry": {"type": "Point", "coordinates": [-87.84781999999996, 41.59862000000004]}, "type": "Feature", "properties": {"city": "Orland Hills", "state": "IL", "name": "Mr. and Mrs. Patrick Ardizzone "}}, {"geometry": {"type": "Point", "coordinates": [-87.84781999999996, 41.59862000000004]}, "type": "Feature", "properties": {"city": "Orland Hills", "state": "IL", "name": "Mr. and Mrs. Michael Schuttler "}}, {"geometry": {"type": "Point", "coordinates": [-87.84781999999996, 41.59862000000004]}, "type": "Feature", "properties": {"city": "Orland Hills", "state": "IL", "name": "Miss Dana Schuttler"}}, {"geometry": {"type": "Point", "coordinates": [-87.66567999999995, 41.56254000000007]}, "type": "Feature", "properties": {"city": "Homewood", "state": "IL", "name": "Mr. and Mrs. Stephen Feehery"}}, {"geometry": {"type": "Point", "coordinates": [-87.66567999999995, 41.56254000000007]}, "type": "Feature", "properties": {"city": "Homewood", "state": "IL", "name": "Mr. Shane Feehery"}}, {"geometry": {"type": "Point", "coordinates": [-88.05577999999997, 41.58893000000006]}, "type": "Feature", "properties": {"city": "Lockport", "state": "IL", "name": "Mr. and Mrs. Brian McCarthy"}}, {"geometry": {"type": "Point", "coordinates": [-87.66567999999995, 41.56254000000007]}, "type": "Feature", "properties": {"city": "Homewood", "state": "IL", "name": "Mr. and Mrs. Brian Knetl"}}, {"geometry": {"type": "Point", "coordinates": [-87.66567999999995, 41.56254000000007]}, "type": "Feature", "properties": {"city": "Homewood", "state": "IL", "name": "Mr. Jack Knetl"}}, {"geometry": {"type": "Point", "coordinates": [-88.20683999999994, 41.52146000000005]}, "type": "Feature", "properties": {"city": "Shorewood", "state": "IL", "name": "Mr. and Mrs. John Dobbyn"}}, {"geometry": {"type": "Point", "coordinates": [-87.78516999999994, 41.597140000000024]}, "type": "Feature", "properties": {"city": "Tinley Park", "state": "IL", "name": "Mr. and Mrs. James Owczarski"}}, {"geometry": {"type": "Point", "coordinates": [-91.48799999999994, 45.09790000000004]}, "type": "Feature", "properties": {"city": "Bloomer", "state": "WI", "name": "Ms. Darlene Clark"}}, {"geometry": {"type": "Point", "coordinates": [-88.15738999999996, 41.87050000000005]}, "type": "Feature", "properties": {"city": "Winfield", "state": "IL", "name": "Mr. and Mrs. John Kirschbaum"}}, {"geometry": {"type": "Point", "coordinates": [-88.15738999999996, 41.87050000000005]}, "type": "Feature", "properties": {"city": "Winfield", "state": "IL", "name": "Miss Katherine Kirschbaum"}}, {"geometry": {"type": "Point", "coordinates": [-88.01107999999994, 41.867560000000026]}, "type": "Feature", "properties": {"city": "Lombard", "state": "IL", "name": "Mr. and Mrs. Jack Kirschbuam"}}, {"geometry": {"type": "Point", "coordinates": [-115.14000999999996, 36.17193000000003]}, "type": "Feature", "properties": {"city": "Las Vegas", "state": "NV", "name": "Mr. William McCoy and Ms. Alexandra Miech "}}, {"geometry": {"type": "Point", "coordinates": [-115.14000999999996, 36.17193000000003]}, "type": "Feature", "properties": {"city": "Las Vegas", "state": "NV", "name": "Miss Aliyah Miech"}}, {"geometry": {"type": "Point", "coordinates": [-88.07968999999997, 42.417950000000076]}, "type": "Feature", "properties": {"city": "Lake Villa", "state": "IL", "name": "Mr. David Steele and Miss Jillian Kirschbaum and Family"}}, {"geometry": {"type": "Point", "coordinates": [-88.82212999999996, 42.36585000000008]}, "type": "Feature", "properties": {"city": "Poplar Grove", "state": "IL", "name": "Mr. Kevin Yech"}}, {"geometry": {"type": "Point", "coordinates": [-87.94033999999994, 42.007250000000056]}, "type": "Feature", "properties": {"city": "Elk Grove", "state": "IL", "name": "Mr. Jason Yech"}}, {"geometry": {"type": "Point", "coordinates": [-88.15301999999997, 41.770830000000046]}, "type": "Feature", "properties": {"city": "Naperville", "state": "IL", "name": "Ms. Anita Kucera"}}, {"geometry": {"type": "Point", "coordinates": [-88.15301999999997, 41.770830000000046]}, "type": "Feature", "properties": {"city": "Naperville", "state": "IL", "name": "Mr. Michael Kucera and Miss Allison Kucera"}}, {"geometry": {"type": "Point", "coordinates": [-88.21207999999996, 41.60845000000006]}, "type": "Feature", "properties": {"city": "Plainfield", "state": "IL", "name": "Mr. and Mrs. Salvatore Bruno"}}, {"geometry": {"type": "Point", "coordinates": [-88.15301999999997, 41.770830000000046]}, "type": "Feature", "properties": {"city": "Naperville", "state": "IL", "name": "Mr. and Mrs. John Kubicki and Family"}}, {"geometry": {"type": "Point", "coordinates": [-87.63244999999995, 41.884250000000065]}, "type": "Feature", "properties": {"city": "Chicago", "state": "IL", "name": "Mr. and Mrs. Ted Pilafas"}}, {"geometry": {"type": "Point", "coordinates": [-88.15908999999994, 41.99145000000004]}, "type": "Feature", "properties": {"city": "Hanover Park", "state": "IL", "name": "Mr. and Mrs. Michael Malizzio and Family"}}, {"geometry": {"type": "Point", "coordinates": [-87.81434999999999, 41.87757000000005]}, "type": "Feature", "properties": {"city": "Forest Park", "state": "IL", "name": "Mr. Timothy Warick and Miss Rachael Barrix and Family"}}, {"geometry": {"type": "Point", "coordinates": [-88.32718999999997, 42.164390000000026]}, "type": "Feature", "properties": {"city": "Algonquin", "state": "IL", "name": "Mr. and Mrs. Scott Fish and Family"}}, {"geometry": {"type": "Point", "coordinates": [-88.41341999999997, 42.06864000000007]}, "type": "Feature", "properties": {"city": "Pingree Grove", "state": "IL", "name": "Mr. and Mrs. Robert Jenson and Family"}}, {"geometry": {"type": "Point", "coordinates": [-83.51541999999995, 42.004470000000026]}, "type": "Feature", "properties": {"city": "Maybee", "state": "MI", "name": "Mr. Mark Dressel"}}, {"geometry": {"type": "Point", "coordinates": [-88.20103999999998, 41.88203000000004]}, "type": "Feature", "properties": {"city": "West Chicago", "state": "IL", "name": "Ms. Suzanne Zafiriou and Mr. John Otzwirk"}}, {"geometry": {"type": "Point", "coordinates": [-88.20103999999998, 41.88203000000004]}, "type": "Feature", "properties": {"city": "West Chicago", "state": "IL", "name": "Mr. and Mrs. Daniel Clark"}}, {"geometry": {"type": "Point", "coordinates": [-88.68558999999999, 41.98864000000003]}, "type": "Feature", "properties": {"city": "Sycamore", "state": "IL", "name": "Mr. and Mrs. Daniel Clark and Family"}}, {"geometry": {"type": "Point", "coordinates": [-89.64359999999994, 39.801300000000026]}, "type": "Feature", "properties": {"city": "Springfield", "state": "IL", "name": "Miss Elizabeth Purcell and Mr. Hayden Esker"}}, {"geometry": {"type": "Point", "coordinates": [-86.14995999999996, 39.76691000000005]}, "type": "Feature", "properties": {"city": "Indianapolis", "state": "IN", "name": "Mr. Hogan Sills and Miss Lauren England "}}, {"geometry": {"type": "Point", "coordinates": [-87.63244999999995, 41.884250000000065]}, "type": "Feature", "properties": {"city": "Chicago", "state": "IL", "name": "Mr. and Mrs. Albert Kim "}}, {"geometry": {"type": "Point", "coordinates": [-87.87503999999996, 41.14170000000007]}, "type": "Feature", "properties": {"city": "Bourbonnais", "state": "IL", "name": "Mr. Ethan Stone"}}, {"geometry": {"type": "Point", "coordinates": [-87.78005999999993, 42.03816000000006]}, "type": "Feature", "properties": {"city": "Morton Grove", "state": "IL", "name": "Mr. Daniel Noboa"}}, {"geometry": {"type": "Point", "coordinates": [-88.07768999999996, 41.98300000000006]}, "type": "Feature", "properties": {"city": "Roselle ", "state": "IL", "name": "Mr. and Mrs. Andrew Gregg"}}, {"geometry": {"type": "Point", "coordinates": [-87.63244999999995, 41.884250000000065]}, "type": "Feature", "properties": {"city": "Chicago", "state": "IL", "name": "Mr. Joseph Serio and Miss Dior Chaz"}}, {"geometry": {"type": "Point", "coordinates": [-88.20103999999998, 41.88203000000004]}, "type": "Feature", "properties": {"city": "West Chicago", "state": "IL", "name": "Mr. Marcos Hernandez"}}, {"geometry": {"type": "Point", "coordinates": [-88.31605999999994, 41.757070000000056]}, "type": "Feature", "properties": {"city": "Aurora", "state": "IL", "name": "Mr. and Mrs. Cal Seckman "}}, {"geometry": {"type": "Point", "coordinates": [-117.16170999999997, 32.71568000000008]}, "type": "Feature", "properties": {"city": "San Diego", "state": "CA", "name": "Mr. Richard Yech "}}, {"geometry": {"type": "Point", "coordinates": [-88.20103999999998, 41.88203000000004]}, "type": "Feature", "properties": {"city": "West Chicago", "state": "IL", "name": "Mr. Gary Harding"}}]}
